# ODOM         dx    dy    dtheta   var(dx)   var(dy)   var(dtheta)
# LANDMARK id  dx    dy    var(dx)   var(dy)
ODOM            1.951240  -0.011297  -0.014949   0.003161   0.003161   0.003161
ODOM            2.005120   0.026587  -0.043812   0.003161   0.003161   0.003161
LANDMARK   10  -9.452850   0.036904   2.000000   2.000000
ODOM            1.932280   0.010757   0.049708   0.003161   0.003161   0.003161
ODOM            1.998440  -0.019221   0.053477   0.003161   0.003161   0.003161
ODOM            2.062310   0.132286   0.016594   0.003161   0.003161   0.003161
ODOM            2.050760  -0.000773  -0.007689   0.003161   0.003161   0.003161
LANDMARK    5  -1.144570   4.673180   0.010000   0.010000
ODOM           -1.991040   0.094519   3.076810   0.003161   0.003161   0.003161
ODOM            1.996690   0.073897   0.127875   0.003161   0.003161   0.003161
ODOM            1.930660   0.028989  -0.021141   0.003161   0.003161   0.003161
ODOM            1.979920   0.002138   0.025083   0.003161   0.003161   0.003161
LANDMARK    5  -6.855970  -4.492730   0.010000   0.010000
LANDMARK    5  -6.775290  -4.674840   0.010000   0.010000
ODOM            1.919820  -0.033221  -0.080560   0.003161   0.003161   0.003161
LANDMARK    2   5.970780  -8.760250   0.010000   0.010000
LANDMARK    2   5.859630  -8.553550   0.010000   0.010000
ODOM            1.980600  -0.015110   0.022079   0.003161   0.003161   0.003161
LANDMARK   10   3.001270   1.217980   0.010000   0.010000
ODOM           -0.018624  -2.031530  -1.565680   0.003161   0.003161   0.003161
LANDMARK   10  -3.127360   2.988770   0.010000   0.010000
LANDMARK   10  -3.154510   3.160430   0.010000   0.010000
ODOM            2.027400  -0.075778  -0.044240   0.003161   0.003161   0.003161
LANDMARK    2   4.820750   3.864860   0.010000   0.010000
LANDMARK    2   4.776370   3.762120   0.010000   0.010000
LANDMARK   10  -5.157280   3.065070   0.010000   0.010000
ODOM            2.037490  -0.020732   0.047587   0.003161   0.003161   0.003161
LANDMARK    2   1.437440   4.506840   2.000000   2.000000
LANDMARK   10  -7.119050   3.063780   0.010000   0.010000
ODOM            1.922790  -0.047642  -0.070141   0.003161   0.003161   0.003161
LANDMARK    2   0.729282   3.976130   0.010000   0.010000
ODOM            2.172190  -0.020102  -0.035239   0.003161   0.003161   0.003161
LANDMARK    6   5.944610  -7.331700   2.000000   2.000000
LANDMARK    2  -1.179960   3.937890   0.010000   0.010000
ODOM            2.041210  -0.055804   0.002687   0.003161   0.003161   0.003161
ODOM            0.036593  -2.054310  -1.611500   0.003161   0.003161   0.003161
LANDMARK    2  -5.787550  -3.249820   0.010000   0.010000
LANDMARK    2  -5.749790  -3.149930   0.010000   0.010000
LANDMARK    2  -5.719160  -3.234360   0.010000   0.010000
LANDMARK    2  -5.971640  -3.051930   0.010000   0.010000
ODOM            2.046160   0.023648   0.026195   0.003161   0.003161   0.003161
LANDMARK    1   8.582740   4.397370   0.010000   0.010000
LANDMARK    6   2.071890   5.135040   0.010000   0.010000
LANDMARK    1   8.710200   4.398600   0.010000   0.010000
ODOM            1.941310   0.023951  -0.013999   0.003161   0.003161   0.003161
LANDMARK    1   6.580700   4.278880   0.010000   0.010000
ODOM            2.018230   0.053815   0.058058   0.003161   0.003161   0.003161
LANDMARK    6  -1.812150   5.079260   0.010000   0.010000
ODOM            2.000350   0.018107  -0.043939   0.003161   0.003161   0.003161
LANDMARK    4   8.131950   1.605550   2.000000   2.000000
LANDMARK    1   2.567960   4.349070   0.010000   0.010000
LANDMARK    3   7.873540  -2.611320   0.010000   0.010000
ODOM            2.026680   0.006082  -0.007064   0.003161   0.003161   0.003161
LANDMARK    1   0.484301   4.462830   0.010000   0.010000
LANDMARK    6  -5.919000   4.969310   0.010000   0.010000
ODOM            2.051080  -0.057553  -0.037247   0.003161   0.003161   0.003161
LANDMARK    5  -3.108680  -7.360910   0.010000   0.010000
LANDMARK    1  -1.320310   4.146920   0.010000   0.010000
LANDMARK    1  -1.467060   4.393440   0.010000   0.010000
LANDMARK    5  -3.001880  -7.426660   0.010000   0.010000
ODOM            2.007750  -0.101852   0.012162   0.003161   0.003161   0.003161
ODOM            1.945540  -0.049515   0.074073   0.003161   0.003161   0.003161
LANDMARK    1  -5.494130   4.560310   0.010000   0.010000
LANDMARK    1  -5.537150   4.509800   0.010000   0.010000
ODOM            1.923700  -0.057593  -0.022239   0.003161   0.003161   0.003161
ODOM            2.021300  -0.086724   0.033552   0.003161   0.003161   0.003161
ODOM            2.119680   0.023520   0.027791   0.003161   0.003161   0.003161
ODOM           -0.007315  -1.937320  -1.486580   0.003161   0.003161   0.003161
LANDMARK    3   0.599671  -6.316240   0.010000   0.010000
ODOM            1.976920   0.109294   0.085203   0.003161   0.003161   0.003161
ODOM            2.015080   0.037906  -0.046307   0.003161   0.003161   0.003161
ODOM            1.954060   0.070924  -0.055639   0.003161   0.003161   0.003161
LANDMARK    9  11.612300   2.481120   0.010000   0.010000
LANDMARK    9  11.527700   2.394080   0.010000   0.010000
LANDMARK    9  11.598400   2.719600   0.010000   0.010000
ODOM            2.052140  -0.089658  -0.023700   0.003161   0.003161   0.003161
LANDMARK    9   9.674820   2.622930   0.010000   0.010000
ODOM            1.997560  -0.123740  -0.034193   0.003161   0.003161   0.003161
LANDMARK    9   6.075990   2.567840   2.000000   2.000000
LANDMARK    9   7.642950   2.471220   0.010000   0.010000
ODOM           -1.991590   0.045194   3.216630   0.003161   0.003161   0.003161
ODOM            2.047880  -0.012473   0.001177   0.003161   0.003161   0.003161
LANDMARK    3   5.416420   6.152150   0.010000   0.010000
ODOM            2.039020   0.028528  -0.116347   0.003161   0.003161   0.003161
LANDMARK    3   3.430430   6.117900   0.010000   0.010000
ODOM            2.049060   0.030695  -0.019820   0.003161   0.003161   0.003161
ODOM            1.915180  -0.024840   0.004947   0.003161   0.003161   0.003161
LANDMARK    4   4.986120   5.665190   0.010000   0.010000
LANDMARK    3  -0.584288   6.319480   0.010000   0.010000
ODOM            1.965750   0.033193  -0.017394   0.003161   0.003161   0.003161
ODOM           -0.069581   2.063400   1.491770   0.003161   0.003161   0.003161
LANDMARK    3   4.207350   2.635920   0.010000   0.010000
ODOM            1.893170   0.075283  -0.041599   0.003161   0.003161   0.003161
LANDMARK    4   1.879830  -3.039990   0.010000   0.010000
ODOM            2.062810  -0.042228   0.099802   0.003161   0.003161   0.003161
ODOM            1.832670  -0.030026   0.103534   0.003161   0.003161   0.003161
LANDMARK    5   5.082650   7.497410   0.010000   0.010000
LANDMARK    5   5.239760   7.458680   0.010000   0.010000
ODOM            2.040910   0.051911  -0.040037   0.003161   0.003161   0.003161
ODOM            2.053160  -0.087260  -0.018335   0.003161   0.003161   0.003161
LANDMARK    1   0.122349  -1.244130   2.000000   2.000000
LANDMARK    6   5.941500  -4.956700   0.010000   0.010000
LANDMARK    3  -5.712770   2.511140   0.010000   0.010000
ODOM            0.074264  -1.928980  -1.592590   0.003161   0.003161   0.003161
LANDMARK    4   1.046050  -6.415690   0.010000   0.010000
LANDMARK    1   2.409800  -0.507243   0.010000   0.010000
ODOM            1.994200  -0.101299  -0.078648   0.003161   0.003161   0.003161
LANDMARK    4  -0.956144  -6.431750   0.010000   0.010000
LANDMARK    4  -0.827918  -6.367410   0.010000   0.010000
ODOM            2.125490  -0.083434  -0.086804   0.003161   0.003161   0.003161
LANDMARK    6  -0.962170   5.945580   0.010000   0.010000
ODOM            1.859360  -0.055869  -0.167476   0.003161   0.003161   0.003161
LANDMARK    6  -2.920920   5.952370   0.010000   0.010000
ODOM            2.061120  -0.033947   0.145871   0.003161   0.003161   0.003161
LANDMARK    1  -5.502820  -0.561886   0.010000   0.010000
ODOM            2.039330  -0.054429  -0.096781   0.003161   0.003161   0.003161
ODOM            2.068980  -0.024996   0.012301   0.003161   0.003161   0.003161
LANDMARK    8   4.023940  -5.684690   0.010000   0.010000
LANDMARK    8   3.613750  -5.603020   0.010000   0.010000
ODOM            1.969160   0.022510  -0.066275   0.003161   0.003161   0.003161
ODOM            1.980570  -0.033593   0.074820   0.003161   0.003161   0.003161
LANDMARK    8  -0.082155  -5.510460   0.010000   0.010000
ODOM            1.940920  -0.027769  -0.033952   0.003161   0.003161   0.003161
LANDMARK    7   6.363090  -8.421680   0.010000   0.010000
ODOM            2.021630   0.070827   0.012078   0.003161   0.003161   0.003161
LANDMARK    8  -4.225440  -5.621840   0.010000   0.010000
LANDMARK    8  -4.061500  -5.603500   0.010000   0.010000
ODOM            1.877820  -0.031855   0.007569   0.003161   0.003161   0.003161
LANDMARK    7   3.344480  -8.139610   2.000000   2.000000
LANDMARK    8  -9.034490  -5.088460   2.000000   2.000000
LANDMARK    8  -6.168340  -5.408490   0.010000   0.010000
LANDMARK    7   2.380840  -8.600030   0.010000   0.010000
LANDMARK    8  -6.102590  -5.573050   0.010000   0.010000
LANDMARK    8  -5.988640  -5.692390   0.010000   0.010000
LANDMARK    7   2.444920  -8.373270   0.010000   0.010000
LANDMARK    7   2.324680  -8.582990   0.010000   0.010000
ODOM           -2.075360   0.012560  -3.079870   0.003161   0.003161   0.003161
ODOM            1.927680   0.012187   0.002547   0.003161   0.003161   0.003161
LANDMARK    8   2.160210   5.518850   0.010000   0.010000
LANDMARK    8   2.078340   5.492700   0.010000   0.010000
ODOM            2.007580  -0.076654  -0.008885   0.003161   0.003161   0.003161
ODOM            1.920440   0.092035   0.016741   0.003161   0.003161   0.003161
LANDMARK    1  11.468400   0.630162   0.010000   0.010000
LANDMARK    8  -1.913460   5.484140   0.010000   0.010000
ODOM            2.019540   0.030423  -0.060910   0.003161   0.003161   0.003161
LANDMARK    8  -3.839550   5.567010   0.010000   0.010000
LANDMARK    1   9.666880   0.626542   0.010000   0.010000
ODOM            2.080830  -0.019777  -0.097073   0.003161   0.003161   0.003161
LANDMARK    8  -5.866330   5.392850   0.010000   0.010000
ODOM            1.993000   0.074498   0.013166   0.003161   0.003161   0.003161
ODOM            1.995790   0.005870  -0.007978   0.003161   0.003161   0.003161
LANDMARK    4   4.916810   6.414980   0.010000   0.010000
ODOM            2.041010   0.031869  -0.014642   0.003161   0.003161   0.003161
ODOM            1.952190   0.036929  -0.040426   0.003161   0.003161   0.003161
LANDMARK    5  11.395400  -1.144690   0.010000   0.010000
LANDMARK    4   0.924535   6.368590   0.010000   0.010000
ODOM            2.074480   0.041119  -0.026342   0.003161   0.003161   0.003161
LANDMARK    4  -0.808574   6.286420   0.010000   0.010000
LANDMARK    5   9.421140  -1.069630   0.010000   0.010000
ODOM            2.030830  -0.073786   0.042459   0.003161   0.003161   0.003161
LANDMARK    1  -4.387700   0.667111   0.010000   0.010000
LANDMARK    4  -3.022230   6.255260   0.010000   0.010000
LANDMARK    3   2.425590   5.836570   0.010000   0.010000
LANDMARK    6  -4.944640  -5.928590   0.010000   0.010000
ODOM           -0.057504   1.976510   1.566580   0.003161   0.003161   0.003161
LANDMARK    5  -4.020940  -9.607770   2.000000   2.000000
LANDMARK    4   4.305750   2.961420   0.010000   0.010000
ODOM            2.051530  -0.037999   0.005792   0.003161   0.003161   0.003161
LANDMARK    4   2.352830   2.903410   0.010000   0.010000
ODOM            1.989930   0.033899   0.005912   0.003161   0.003161   0.003161
ODOM            2.040440   0.024294  -0.043658   0.003161   0.003161   0.003161
ODOM            2.060250   0.031585  -0.059056   0.003161   0.003161   0.003161
LANDMARK    3  -4.237900  -2.644770   0.010000   0.010000
LANDMARK    4  -3.532380   2.884160   0.010000   0.010000
ODOM            2.056110  -0.026219   0.064875   0.003161   0.003161   0.003161
LANDMARK    4  -5.732990   2.960050   0.010000   0.010000
ODOM            0.103167  -2.016820  -1.572200   0.003161   0.003161   0.003161
LANDMARK    3   0.421640  -6.218190   0.010000   0.010000
ODOM            2.031740  -0.087919  -0.015715   0.003161   0.003161   0.003161
ODOM            1.998170  -0.042036   0.021136   0.003161   0.003161   0.003161
ODOM            2.017340  -0.020050  -0.049388   0.003161   0.003161   0.003161
LANDMARK    9  11.740700   2.708650   0.010000   0.010000
ODOM            2.052960  -0.009191  -0.046330   0.003161   0.003161   0.003161
LANDMARK    9   9.686160   2.514570   0.010000   0.010000
LANDMARK    9   9.684860   2.577570   0.010000   0.010000
ODOM            2.021230   0.051241   0.157421   0.003161   0.003161   0.003161
LANDMARK    9   7.725280   2.586710   0.010000   0.010000
ODOM            0.005202  -2.080570   4.694330   0.003161   0.003161   0.003161
LANDMARK    3   4.089660  -9.521110   0.010000   0.010000
ODOM            1.954860   0.033160   0.033761   0.003161   0.003161   0.003161
ODOM            2.144660   0.038447  -0.035172   0.003161   0.003161   0.003161
ODOM            1.898550  -0.061178  -0.051112   0.003161   0.003161   0.003161
ODOM            2.030600   0.046074  -0.064162   0.003161   0.003161   0.003161
ODOM            2.087790  -0.043478  -0.041501   0.003161   0.003161   0.003161
ODOM           -2.079120   0.078493  -3.096820   0.003161   0.003161   0.003161
LANDMARK    5  -3.055880   4.486000   0.010000   0.010000
ODOM            2.018340   0.010824  -0.032650   0.003161   0.003161   0.003161
LANDMARK    3   2.056650   9.276270   0.010000   0.010000
ODOM            2.121440   0.061708   0.003599   0.003161   0.003161   0.003161
LANDMARK    3   0.859055  10.964300   2.000000   2.000000
ODOM            2.048680  -0.020377  -0.020865   0.003161   0.003161   0.003161
ODOM            2.032140   0.043353   0.121314   0.003161   0.003161   0.003161
LANDMARK    9   4.705670  -7.652590   0.010000   0.010000
ODOM            1.922640  -0.135471  -0.053862   0.003161   0.003161   0.003161
ODOM            1.980530   0.082001   0.002442   0.003161   0.003161   0.003161
ODOM            2.017160  -0.019312  -0.005174   0.003161   0.003161   0.003161
LANDMARK    9  -1.386300  -7.602740   0.010000   0.010000
ODOM            1.965690   0.087833  -0.037650   0.003161   0.003161   0.003161
LANDMARK    9  -3.452740  -7.698550   0.010000   0.010000
ODOM            2.001620   0.016889   0.008002   0.003161   0.003161   0.003161